{
  "_comment": "校园周边数据采集配置 — 一般不需要改，除非要加/减学校或调整配额",
  "_usage": "API Key 自动从 agent-service/.env 和系统环境变量读取，与本项目后端共用同一份配置。",

  "defaultMaxItems": 20,
  "categoryQuota": {
    "restaurant": 12,
    "shopping": 3,
    "entertainment": 3,
    "hotel": 2,
    "transport": 2,
    "service": 2
  },

  "amap": {
    "_keySource": "自动读取: 系统环境变量 TOURISM_AMAP_WEB_KEY → TOURISM_AMAP_KEY → AMAP_WEB_KEY → 或直接填在下方 apiKey",
    "apiKey": "7191882bb535113e6b74e2db94758fb1",
    "categories": ["050000", "060000", "070000", "080000", "100000", "150000"],
    "radius": 3000
  },

  "llm": {
    "_keySource": "自动读取: agent-service/.env (TEXT_LLM_API_KEY) → 系统环境变量 → 或直接填在下方",
    "provider": "openai_compatible",
    "apiKey": "",
    "baseUrl": "",
    "model": "",
    "batchSize": 20
  },

  "selection": {
    "maxSameBrand": 2,
    "sortWeight": {
      "rating": 0.5,
      "reviewCount": 0.3,
      "distance": 0.2
    }
  },

  "schools": [
    {"placeId": "place_001", "name": "北京邮电大学", "center": {"lat": 39.9592, "lng": 116.3536}, "address": "北京市海淀区西土城路10号", "maxItems": 400},
    {"placeId": "place_002", "name": "清华大学", "center": {"lat": 40.0005, "lng": 116.3268}, "address": "北京市海淀区清华园1号"},
    {"placeId": "place_003", "name": "北京大学", "center": {"lat": 39.9929, "lng": 116.3108}, "address": "北京市海淀区颐和园路5号"},
    {"placeId": "place_004", "name": "中国人民大学", "center": {"lat": 39.9700, "lng": 116.3181}, "address": "北京市海淀区中关村大街59号"},
    {"placeId": "place_005", "name": "北京交通大学", "center": {"lat": 39.9514, "lng": 116.3438}, "address": "北京市海淀区上园村3号"},
    {"placeId": "place_006", "name": "北京工业大学", "center": {"lat": 39.8704, "lng": 116.4861}, "address": "北京市朝阳区平乐园100号"},
    {"placeId": "place_007", "name": "北京航空航天大学", "center": {"lat": 39.9845, "lng": 116.3534}, "address": "北京市海淀区学院路37号"},
    {"placeId": "place_008", "name": "北京理工大学", "center": {"lat": 39.9598, "lng": 116.3159}, "address": "北京市海淀区中关村南大街5号"},
    {"placeId": "place_009", "name": "北京科技大学", "center": {"lat": 39.9918, "lng": 116.3592}, "address": "北京市海淀区学院路30号"},
    {"placeId": "place_010", "name": "北京化工大学", "center": {"lat": 39.9729, "lng": 116.4234}, "address": "北京市朝阳区北三环东路15号"},
    {"placeId": "place_011", "name": "北京邮电大学", "center": {"lat": 39.9592, "lng": 116.3536}, "address": "北京市海淀区西土城路10号", "_duplicate": true},
    {"placeId": "place_012", "name": "中国农业大学", "center": {"lat": 40.0068, "lng": 116.3557}, "address": "北京市海淀区清华东路17号"},
    {"placeId": "place_013", "name": "北京林业大学", "center": {"lat": 40.0040, "lng": 116.3525}, "address": "北京市海淀区清华东路35号"},
    {"placeId": "place_014", "name": "北京中医药大学", "center": {"lat": 39.9724, "lng": 116.4296}, "address": "北京市朝阳区北三环东路11号"},
    {"placeId": "place_015", "name": "北京师范大学", "center": {"lat": 39.9626, "lng": 116.3684}, "address": "北京市海淀区新街口外大街19号"},
    {"placeId": "place_016", "name": "北京外国语大学", "center": {"lat": 39.9579, "lng": 116.3079}, "address": "北京市海淀区西三环北路2号"},
    {"placeId": "place_017", "name": "中国传媒大学", "center": {"lat": 39.9117, "lng": 116.5579}, "address": "北京市朝阳区定福庄东街1号"},
    {"placeId": "place_018", "name": "中央财经大学", "center": {"lat": 39.9691, "lng": 116.3527}, "address": "北京市海淀区学院南路39号"},
    {"placeId": "place_019", "name": "对外经济贸易大学", "center": {"lat": 39.9806, "lng": 116.4257}, "address": "北京市朝阳区惠新东街10号"},
    {"placeId": "place_020", "name": "北京体育大学", "center": {"lat": 40.0236, "lng": 116.3140}, "address": "北京市海淀区信息路48号"},
    {"placeId": "place_021", "name": "中央民族大学", "center": {"lat": 39.9511, "lng": 116.3167}, "address": "北京市海淀区中关村南大街27号"},
    {"placeId": "place_022", "name": "中国政法大学", "center": {"lat": 40.0783, "lng": 116.3463}, "address": "北京市昌平区府学路27号"},
    {"placeId": "place_023", "name": "华北电力大学", "center": {"lat": 40.0887, "lng": 116.3059}, "address": "北京市昌平区回龙观北农路2号"},
    {"placeId": "place_024", "name": "中国地质大学(北京)", "center": {"lat": 39.9888, "lng": 116.3565}, "address": "北京市海淀区学院路29号"},
    {"placeId": "place_025", "name": "中国矿业大学(北京)", "center": {"lat": 39.9947, "lng": 116.3584}, "address": "北京市海淀区学院路丁11号"},
    {"placeId": "place_026", "name": "中国石油大学(北京)", "center": {"lat": 40.2199, "lng": 116.2642}, "address": "北京市昌平区府学路18号"},
    {"placeId": "place_027", "name": "北京语言大学", "center": {"lat": 39.9936, "lng": 116.3422}, "address": "北京市海淀区学院路15号"},
    {"placeId": "place_028", "name": "北京工商大学", "center": {"lat": 39.9250, "lng": 116.3165}, "address": "北京市海淀区阜成路11号"},
    {"placeId": "place_029", "name": "北京服装学院", "center": {"lat": 39.9742, "lng": 116.4267}, "address": "北京市朝阳区樱花东街甲2号"},
    {"placeId": "place_030", "name": "北京印刷学院", "center": {"lat": 39.7411, "lng": 116.3402}, "address": "北京市大兴区兴华大街二段1号"},
    {"placeId": "place_031", "name": "北京建筑大学", "center": {"lat": 39.7392, "lng": 116.3340}, "address": "北京市大兴区黄村镇永源路15号"},
    {"placeId": "place_032", "name": "北京石油化工学院", "center": {"lat": 39.7517, "lng": 116.1945}, "address": "北京市大兴区黄村镇清源北路19号"},
    {"placeId": "place_033", "name": "北京电子科技学院", "center": {"lat": 39.9400, "lng": 116.1367}, "address": "北京市丰台区富丰路7号"},
    {"placeId": "place_034", "name": "北京农学院", "center": {"lat": 40.1926, "lng": 116.3259}, "address": "北京市昌平区回龙观镇北农路7号"},
    {"placeId": "place_035", "name": "首都医科大学", "center": {"lat": 39.8625, "lng": 116.3536}, "address": "北京市丰台区右安门外西头条10号"},
    {"placeId": "place_036", "name": "首都师范大学", "center": {"lat": 39.9304, "lng": 116.3068}, "address": "北京市海淀区西三环北路105号"},
    {"placeId": "place_037", "name": "首都经济贸易大学", "center": {"lat": 39.8418, "lng": 116.3366}, "address": "北京市丰台区花乡张家路口121号"},
    {"placeId": "place_038", "name": "北京第二外国语学院", "center": {"lat": 39.9124, "lng": 116.5631}, "address": "北京市朝阳区定福庄南里1号"},
    {"placeId": "place_039", "name": "北京物资学院", "center": {"lat": 39.9151, "lng": 116.6444}, "address": "北京市通州区富河大街321号"},
    {"placeId": "place_040", "name": "中国音乐学院", "center": {"lat": 40.0016, "lng": 116.3776}, "address": "北京市朝阳区安翔路1号"},
    {"placeId": "place_041", "name": "中央美术学院", "center": {"lat": 39.9885, "lng": 116.4465}, "address": "北京市朝阳区花家地南街8号"},
    {"placeId": "place_042", "name": "中央戏剧学院", "center": {"lat": 39.9410, "lng": 116.4079}, "address": "北京市东城区东棉花胡同39号"},
    {"placeId": "place_043", "name": "中国戏曲学院", "center": {"lat": 39.8633, "lng": 116.3284}, "address": "北京市丰台区万泉寺400号"},
    {"placeId": "place_044", "name": "北京电影学院", "center": {"lat": 39.9701, "lng": 116.3539}, "address": "北京市海淀区西土城路4号"},
    {"placeId": "place_045", "name": "北京舞蹈学院", "center": {"lat": 39.9477, "lng": 116.3237}, "address": "北京市海淀区万寿寺路1号"},
    {"placeId": "place_046", "name": "北京信息科技大学", "center": {"lat": 40.0394, "lng": 116.3315}, "address": "北京市海淀区清河小营东路12号"},
    {"placeId": "place_047", "name": "北京联合大学", "center": {"lat": 39.9843, "lng": 116.4261}, "address": "北京市朝阳区北四环东路97号"},
    {"placeId": "place_048", "name": "北京城市学院", "center": {"lat": 40.0022, "lng": 116.2965}, "address": "北京市海淀区北四环中路269号"},
    {"placeId": "place_049", "name": "北京工业职业技术学院", "center": {"lat": 39.9180, "lng": 116.1214}, "address": "北京市石景山区石门路368号"},
    {"placeId": "place_050", "name": "北京电子科技职业学院", "center": {"lat": 39.8071, "lng": 116.5428}, "address": "北京市朝阳区太阳宫芍药居甲1号"},
    {"placeId": "place_051", "name": "复旦大学", "center": {"lat": 31.2973, "lng": 121.5031}, "address": "上海市杨浦区邯郸路220号"},
    {"placeId": "place_052", "name": "同济大学", "center": {"lat": 31.2851, "lng": 121.4951}, "address": "上海市杨浦区四平路1239号"},
    {"placeId": "place_053", "name": "上海交通大学", "center": {"lat": 31.2001, "lng": 121.4375}, "address": "上海市徐汇区华山路1954号"},
    {"placeId": "place_054", "name": "华东理工大学", "center": {"lat": 31.1456, "lng": 121.4304}, "address": "上海市徐汇区梅陇路130号"},
    {"placeId": "place_055", "name": "东华大学", "center": {"lat": 31.2083, "lng": 121.4151}, "address": "上海市长宁区延安西路1882号"},
    {"placeId": "place_056", "name": "华东师范大学", "center": {"lat": 31.2309, "lng": 121.4044}, "address": "上海市普陀区中山北路3663号"},
    {"placeId": "place_057", "name": "上海外国语大学", "center": {"lat": 31.2759, "lng": 121.4817}, "address": "上海市虹口区大连西路550号"},
    {"placeId": "place_058", "name": "上海财经大学", "center": {"lat": 31.3055, "lng": 121.4988}, "address": "上海市杨浦区国定路777号"},
    {"placeId": "place_059", "name": "上海大学", "center": {"lat": 31.3172, "lng": 121.3943}, "address": "上海市宝山区上大路99号"},
    {"placeId": "place_060", "name": "上海理工大学", "center": {"lat": 31.2916, "lng": 121.5563}, "address": "上海市杨浦区军工路516号"},
    {"placeId": "place_061", "name": "上海海事大学", "center": {"lat": 30.8864, "lng": 121.9008}, "address": "上海市浦东新区海港大道1550号"},
    {"placeId": "place_062", "name": "上海海洋大学", "center": {"lat": 30.8872, "lng": 121.8972}, "address": "上海市浦东新区沪城环路999号"},
    {"placeId": "place_063", "name": "华东政法大学", "center": {"lat": 31.2215, "lng": 121.4118}, "address": "上海市长宁区万航渡路1575号"},
    {"placeId": "place_064", "name": "上海师范大学", "center": {"lat": 31.1598, "lng": 121.4185}, "address": "上海市徐汇区桂林路100号"},
    {"placeId": "place_065", "name": "上海对外经贸大学", "center": {"lat": 31.2090, "lng": 121.3386}, "address": "上海市松江区文翔路1900号"},
    {"placeId": "place_066", "name": "上海工程技术大学", "center": {"lat": 31.0619, "lng": 121.2126}, "address": "上海市松江区龙腾路333号"},
    {"placeId": "place_067", "name": "上海音乐学院", "center": {"lat": 31.2176, "lng": 121.4521}, "address": "上海市徐汇区汾阳路20号"},
    {"placeId": "place_068", "name": "上海戏剧学院", "center": {"lat": 31.2212, "lng": 121.4388}, "address": "上海市静安区华山路630号"},
    {"placeId": "place_069", "name": "上海体育大学", "center": {"lat": 31.3143, "lng": 121.4984}, "address": "上海市杨浦区长海路399号"},
    {"placeId": "place_070", "name": "上海电力大学", "center": {"lat": 31.0587, "lng": 121.7300}, "address": "上海市浦东新区沪城环路1851号"},
    {"placeId": "place_071", "name": "上海应用技术大学", "center": {"lat": 30.8510, "lng": 121.5041}, "address": "上海市奉贤区海泉路100号"},
    {"placeId": "place_072", "name": "上海科技大学", "center": {"lat": 31.1758, "lng": 121.5956}, "address": "上海市浦东新区华夏中路393号"},
    {"placeId": "place_073", "name": "上海海关学院", "center": {"lat": 31.2374, "lng": 121.5410}, "address": "上海市浦东新区华夏西路5677号"},
    {"placeId": "place_074", "name": "上海政法学院", "center": {"lat": 31.1232, "lng": 121.1630}, "address": "上海市青浦区外青松公路7989号"},
    {"placeId": "place_075", "name": "上海电机学院", "center": {"lat": 30.9071, "lng": 121.8736}, "address": "上海市浦东新区水华路300号"},
    {"placeId": "place_076", "name": "浙江大学", "center": {"lat": 30.2683, "lng": 120.1296}, "address": "浙江省杭州市西湖区余杭塘路866号"},
    {"placeId": "place_077", "name": "浙江工业大学", "center": {"lat": 30.2415, "lng": 120.0404}, "address": "浙江省杭州市西湖区留和路288号"},
    {"placeId": "place_078", "name": "浙江理工大学", "center": {"lat": 30.3140, "lng": 120.3552}, "address": "浙江省杭州市钱塘区2号大街928号"},
    {"placeId": "place_079", "name": "杭州电子科技大学", "center": {"lat": 30.3161, "lng": 120.3491}, "address": "浙江省杭州市钱塘区白杨街道2号大街1158号"},
    {"placeId": "place_080", "name": "浙江工商大学", "center": {"lat": 30.3118, "lng": 120.3891}, "address": "浙江省杭州市钱塘区学正街18号"},
    {"placeId": "place_081", "name": "中国计量大学", "center": {"lat": 30.3212, "lng": 120.3604}, "address": "浙江省杭州市钱塘区学源街258号"},
    {"placeId": "place_082", "name": "浙江中医药大学", "center": {"lat": 30.1482, "lng": 120.1645}, "address": "浙江省杭州市滨江区滨文路548号"},
    {"placeId": "place_083", "name": "浙江农林大学", "center": {"lat": 30.2618, "lng": 119.7301}, "address": "浙江省杭州市临安区武肃街666号"},
    {"placeId": "place_084", "name": "浙江师范大学", "center": {"lat": 29.1349, "lng": 119.6440}, "address": "浙江省金华市婺城区迎宾大道688号"},
    {"placeId": "place_085", "name": "杭州师范大学", "center": {"lat": 30.3265, "lng": 120.0122}, "address": "浙江省杭州市余杭区仓前街道余杭塘路2318号"},
    {"placeId": "place_086", "name": "温州医科大学", "center": {"lat": 27.9195, "lng": 120.6975}, "address": "浙江省温州市瓯海区茶山高教园区"},
    {"placeId": "place_087", "name": "宁波大学", "center": {"lat": 29.9104, "lng": 121.6387}, "address": "浙江省宁波市江北区风华路818号"},
    {"placeId": "place_088", "name": "中国美术学院", "center": {"lat": 30.1768, "lng": 120.0992}, "address": "浙江省杭州市西湖区转塘街道象山路352号"},
    {"placeId": "place_089", "name": "南京大学", "center": {"lat": 32.1195, "lng": 118.7780}, "address": "江苏省南京市栖霞区仙林大道163号"},
    {"placeId": "place_090", "name": "东南大学", "center": {"lat": 32.0589, "lng": 118.7957}, "address": "江苏省南京市玄武区四牌楼2号"},
    {"placeId": "place_091", "name": "南京航空航天大学", "center": {"lat": 32.0366, "lng": 118.7976}, "address": "江苏省南京市秦淮区御道街29号"},
    {"placeId": "place_092", "name": "南京理工大学", "center": {"lat": 32.0354, "lng": 118.8576}, "address": "江苏省南京市玄武区孝陵卫200号"},
    {"placeId": "place_093", "name": "中国矿业大学", "center": {"lat": 34.2160, "lng": 117.1435}, "address": "江苏省徐州市铜山区大学路1号"},
    {"placeId": "place_094", "name": "河海大学", "center": {"lat": 32.0712, "lng": 118.7571}, "address": "江苏省南京市鼓楼区西康路1号"},
    {"placeId": "place_095", "name": "江南大学", "center": {"lat": 31.4877, "lng": 120.2733}, "address": "江苏省无锡市滨湖区蠡湖大道1800号"},
    {"placeId": "place_096", "name": "南京农业大学", "center": {"lat": 32.0363, "lng": 118.8450}, "address": "江苏省南京市玄武区卫岗1号"},
    {"placeId": "place_097", "name": "中国药科大学", "center": {"lat": 32.0764, "lng": 118.9163}, "address": "江苏省南京市江宁区龙眠大道639号"},
    {"placeId": "place_098", "name": "南京师范大学", "center": {"lat": 32.1042, "lng": 118.9119}, "address": "江苏省南京市栖霞区文苑路1号"},
    {"placeId": "place_099", "name": "苏州大学", "center": {"lat": 31.3037, "lng": 120.6584}, "address": "江苏省苏州市姑苏区干将东路333号"},
    {"placeId": "place_100", "name": "新疆大学", "center": {"lat": 43.7666, "lng": 87.6173}, "address": "新疆乌鲁木齐市天山区胜利路666号"},
    {"placeId": "place_101", "name": "石河子大学", "center": {"lat": 44.3044, "lng": 86.0576}, "address": "新疆石河子市北四路221号"}
  ]
}
